[
  {
    "nome": "Entrada Humberto Monte",
    "id": 1,
    "lat": -3.738719,
    "lng": -38.569744,
    "para": [
      { "b": ["a", "b"] },
      { "c": ["a", "b", "c"] },
      { "d": ["a", "b", "c", "d"] },
      { "e": ["a", "b", "c", "d", "e"] },
      { "f": ["a", "b", "c", "d", "e", "f"] },
      { "g": ["a", "b", "c", "d", "e", "f", "g"] },
      { "h": ["a", "b", "c", "d", "e", "h"] }
    ]
  },

  {
    "nome": "Parada do Açude",
    "id": 2,
    "lat": -3.739447,
    "lng": -38.572383,
    "para": [
      { "a": ["b", "a"] },
      { "c": ["b", "c"] },
      { "d": ["b", "c", "d"] },
      { "e": ["b", "c", "d", "e"] },
      { "f": ["b", "c", "d", "e", "f"] },
      { "g": ["b", "c", "d", "e", "f", "g"] },
      { "h": ["b", "c", "d", "e", "h"] }
    ]
  },

  {
    "nome": "Biblioteca Central",
    "id": 3,
    "lat": -3.742522,
    "lng": -38.574836,
    "para": [
      { "a": ["c", "b", "a"] },
      { "b": ["c", "b"] },
      { "d": ["c", "d"] },
      { "e": ["c", "d", "e"] },
      { "f": ["c", "d", "e", "f"] },
      { "g": ["c", "d", "e", "f", "g"] },
      { "h": ["c", "d", "e", "h"] }
    ]
  },

  {
    "nome": "Bloco 713",
    "id": 4,
    "lat": -3.745086,
    "lng": -38.576397,
    "para": [
      { "a": ["d", "e", "f", "g", "c", "b", "a"] },
      { "b": ["d", "e", "f", "g", "c", "b"] },
      { "c": ["d", "e", "f", "g", "c"] },
      { "e": ["d", "e"] },
      { "f": ["d", "e", "f"] },
      { "g": ["d", "e", "f", "g"] },
      { "h": ["d", "e", "h"] }
    ]
  },

  {
    "nome": "GREat",
    "id": 5,
    "lat": -3.746481,
    "lng": -38.577836,
    "para": [
      { "a": ["e", "f", "g", "c", "b", "a"] },
      { "b": ["e", "f", "g", "c", "b"] },
      { "c": ["e", "f", "g", "c"] },
      { "d": ["e", "f", "g", "d"] },
      { "f": ["e", "f"] },
      { "g": ["e", "f", "g"] },
      { "h": ["e", "h"] }
    ]
  },

  {
    "nome": "Bloco 914",
    "id": 6,
    "lat": -3.747119,
    "lng": -38.573683,
    "para": [
      { "a": ["f", "g", "c", "b", "a"] },
      { "b": ["f", "g", "c", "b"] },
      { "c": ["f", "g", "c"] },
      { "d": ["f", "g", "d"] },
      { "e": ["f", "g", "d", "e"] },
      { "g": ["f", "g"] },
      { "h": ["f", "g", "d", "e", "h"] }
    ]
  },

  {
    "nome": "Restaurante Universitário Antigo",
    "id": 7,
    "lat": -3.745217,
    "lng": -38.573019,
    "para": [
      { "a": ["g", "c", "b", "a"] },
      { "b": ["g", "c", "b"] },
      { "c": ["g", "c"] },
      { "d": ["g", "d"] },
      { "e": ["g", "d", "e"] },
      { "f": ["g", "d", "e", "f"] },
      { "h": ["g", "d", "e", "h"] }
    ]
  },

  {
    "nome": "Entrada Rua Pernambuco",
    "id": 8,
    "lat": -3.754728,
    "lng": -38.574475,
    "para": [
      { "a": ["h", "f", "g", "c", "b", "a"] },
      { "b": ["h", "f", "g", "c", "b"] },
      { "c": ["h", "f", "g", "c"] },
      { "d": ["h", "f", "g", "d"] },
      { "e": ["h", "f", "g", "d", "e"] },
      { "f": ["h", "f"] },
      { "g": ["h", "f", "g"] }
    ]
  }
]
